,STOP_ID,DIRECTION_ID,STOP_NAME,STATION_NAME,STATION_DESCRIPTIVE_NAME,MAP_ID,ADA,RED,BLUE,G,BRN,P,Pexp,Y,Pnk,O,Location,Historical Wards 2003-2015,Zip Codes,Community Areas,Census Tracts,Wards,latitude,longitude
0,30162,W,18th (54th/Cermak-bound),18th,18th (Pink Line),40830,True,False,False,False,False,False,False,False,True,False,"(41.857908, -87.669147)",8.0,14920,33.0,343.0,26.0,41.857908,-87.669147
1,30161,E,18th (Loop-bound),18th,18th (Pink Line),40830,True,False,False,False,False,False,False,False,True,False,"(41.857908, -87.669147)",8.0,14920,33.0,343.0,26.0,41.857908,-87.669147
2,30022,N,35th/Archer (Loop-bound),35th/Archer,35th/Archer (Orange Line),40120,True,False,False,False,False,False,False,False,False,True,"(41.829353, -87.680622)",26.0,14924,56.0,719.0,1.0,41.829353,-87.680622
3,30023,S,35th/Archer (Midway-bound),35th/Archer,35th/Archer (Orange Line),40120,True,False,False,False,False,False,False,False,False,True,"(41.829353, -87.680622)",26.0,14924,56.0,719.0,1.0,41.829353,-87.680622
4,30214,S,35-Bronzeville-IIT (63rd-bound),35th-Bronzeville-IIT,35th-Bronzeville-IIT (Green Line),41120,True,False,False,True,False,False,False,False,False,False,"(41.831677, -87.625826)",12.0,21194,1.0,25.0,9.0,41.831677,-87.625826
5,30213,N,35-Bronzeville-IIT (Harlem-bound),35th-Bronzeville-IIT,35th-Bronzeville-IIT (Green Line),41120,True,False,False,True,False,False,False,False,False,False,"(41.831677, -87.625826)",12.0,21194,1.0,25.0,9.0,41.831677,-87.625826
6,30246,S,43rd (63rd-bound),43rd,43rd (Green Line),41270,True,False,False,True,False,False,False,False,False,False,"(41.816462, -87.619021)",12.0,4301,4.0,162.0,9.0,41.816462,-87.619021
7,30245,N,43rd (Harlem-bound),43rd,43rd (Green Line),41270,True,False,False,True,False,False,False,False,False,False,"(41.816462, -87.619021)",12.0,4301,4.0,162.0,9.0,41.816462,-87.619021
8,30210,S,47th (63rd-bound),47th,47th (Green Line),41080,True,False,False,True,False,False,False,False,False,False,"(41.809209, -87.618826)",12.0,21192,4.0,448.0,9.0,41.809209,-87.618826
9,30209,N,47th (Harlem-bound),47th,47th (Green Line),41080,True,False,False,True,False,False,False,False,False,False,"(41.809209, -87.618826)",12.0,21192,4.0,448.0,9.0,41.809209,-87.618826
10,30238,S,47th (95th-bound),47th,47th (Red Line),41230,True,True,False,False,False,False,False,False,False,False,"(41.810318, -87.63094)",12.0,14924,3.0,189.0,9.0,41.810318,-87.63094
11,30237,N,47th (Howard-bound),47th,47th (Red Line),41230,True,True,False,False,False,False,False,False,False,False,"(41.810318, -87.63094)",12.0,14924,3.0,189.0,9.0,41.810318,-87.63094
12,30025,S,51st (63rd-bound),51st,51st (Green Line),40130,True,False,False,True,False,False,False,False,False,False,"(41.80209, -87.618487)",12.0,21192,4.0,449.0,9.0,41.80209,-87.618487
13,30024,N,51st (Harlem-bound),51st,51st (Green Line),40130,True,False,False,True,False,False,False,False,False,False,"(41.80209, -87.618487)",12.0,21192,4.0,449.0,9.0,41.80209,-87.618487
14,30113,E,54th/Cermak (Loop-bound),54th/Cermak,54th/Cermak (Pink Line),40580,True,False,False,False,False,False,False,False,True,False,"(41.85177331, -87.75669201)",,4458,,,,41.85177331,-87.75669201
15,30114,W,54th/Cermak (Terminal arrival),54th/Cermak,54th/Cermak (Pink Line),40580,True,False,False,False,False,False,False,False,True,False,"(41.85177331, -87.75669201)",,4458,,,,41.85177331,-87.75669201
16,30178,S,63rd (95th-bound),63rd,63rd (Red Line),40910,True,True,False,False,False,False,False,False,False,False,"(41.780536, -87.630952)",53.0,21559,66.0,166.0,4.0,41.780536,-87.630952
17,30177,N,63rd (Howard-bound),63rd,63rd (Red Line),40910,True,True,False,False,False,False,False,False,False,False,"(41.780536, -87.630952)",53.0,21559,66.0,166.0,4.0,41.780536,-87.630952
18,30192,S,69th (95th-bound),69th,69th (Red Line),40990,True,True,False,False,False,False,False,False,False,False,"(41.768367, -87.625724)",31.0,21559,67.0,513.0,32.0,41.768367,-87.625724
19,30191,N,69th (Howard-bound),69th,69th (Red Line),40990,True,True,False,False,False,False,False,False,False,False,"(41.768367, -87.625724)",31.0,21559,67.0,513.0,32.0,41.768367,-87.625724
20,30047,S,79th (95th-bound),79th,79th (Red Line),40240,True,True,False,False,False,False,False,False,False,False,"(41.750419, -87.625112)",31.0,21554,40.0,1.0,32.0,41.750419,-87.625112
21,30046,N,79th (Howard-bound),79th,79th (Red Line),40240,True,True,False,False,False,False,False,False,False,False,"(41.750419, -87.625112)",31.0,21554,40.0,1.0,32.0,41.750419,-87.625112
22,30275,N,87th (Howard-bound),87th,87th (Red Line),41430,True,True,False,False,False,False,False,False,False,False,"(41.735372, -87.624717)",18.0,21554,40.0,1.0,13.0,41.735372,-87.624717
23,30276,S,87th (95th-bound),87th,87th (Red Line),41430,True,True,False,False,False,False,False,False,False,False,"(41.735372, -87.624717)",18.0,21554,40.0,1.0,13.0,41.735372,-87.624717
24,30089,S,95th/Dan Ryan (95th-bound),95th/Dan Ryan,95th/Dan Ryan (Red Line),40450,True,True,False,False,False,False,False,False,False,False,"(41.722377, -87.624342)",18.0,21861,45.0,187.0,13.0,41.722377,-87.624342
25,30088,N,95th/Dan Ryan (Howard-bound),95th/Ran Ryan,95th/Ran Ryan (Red Line),40450,True,True,False,False,False,False,False,False,False,False,"(41.722377, -87.624342)",18.0,21861,45.0,187.0,13.0,41.722377,-87.624342
26,30132,S,Adams/Wabash (Inner Loop),Adams/Wabash,"Adams/Wabash (Brown, Green, Orange, Pink & Purple Lines)",40680,False,False,False,True,False,False,True,False,True,True,"(41.879507, -87.626037)",22.0,14912,38.0,367.0,36.0,41.879507,-87.626037
27,30131,N,Adams/Wabash (Outer Loop),Adams/Wabash,"Adams/Wabash (Brown, Green, Orange, Pink & Purple Lines)",40680,False,False,False,True,True,False,False,False,False,False,"(41.879507, -87.626037)",22.0,14912,38.0,367.0,36.0,41.879507,-87.626037
28,30239,N,Addison (O'Hare-bound),Addison,Addison (Blue Line),41240,True,False,True,False,False,False,False,False,False,False,"(41.94738, -87.71906)",15.0,21538,16.0,326.0,50.0,41.94738,-87.71906
29,30240,S,Addison (Forest Pk-bound),Addison,Addison (Blue Line),41240,True,False,True,False,False,False,False,False,False,False,"(41.94738, -87.71906)",15.0,21538,16.0,326.0,50.0,41.94738,-87.71906
30,30277,N,Addison (Kimball-bound),Addison,Addison (Brown Line),41440,True,False,False,False,True,False,False,False,False,False,"(41.947028, -87.674642)",13.0,21186,46.0,644.0,18.0,41.947028,-87.674642
31,30278,S,Addison (Loop-bound),Addison,Addison (Brown Line),41440,True,False,False,False,True,False,False,False,False,False,"(41.947028, -87.674642)",13.0,21186,46.0,644.0,18.0,41.947028,-87.674642
32,30274,S,Addison (95th-bound),Addison,Addison (Red Line),41420,True,True,False,False,False,False,False,False,False,False,"(41.947428, -87.653626)",38.0,21186,57.0,727.0,25.0,41.947428,-87.653626
33,30273,N,Addison (Howard-bound),Addison,Addison (Red Line),41420,True,True,False,False,False,False,False,False,False,False,"(41.947428, -87.653626)",38.0,21186,57.0,727.0,25.0,41.947428,-87.653626
34,30230,S,Argyle (95th-bound),Argyle,Argyle (Red Line),41200,False,True,False,False,False,False,False,False,False,False,"(41.973453, -87.65853)",40.0,22616,31.0,634.0,16.0,41.973453,-87.65853
35,30229,N,Argyle (Howard-bound),Argyle,Argyle (Red Line),41200,False,True,False,False,False,False,False,False,False,False,"(41.973453, -87.65853)",40.0,22616,31.0,634.0,16.0,41.973453,-87.65853
36,30127,N,Armitage (Kimball-Linden-bound),Armitage,Armitage (Brown & Purple Lines),40660,True,False,False,False,True,False,True,False,False,False,"(41.918217, -87.652644)",51.0,21190,68.0,744.0,34.0,41.918217,-87.652644
37,30128,S,Armitage (Loop-bound),Armitage,Armitage (Brown & Purple Lines),40660,True,False,False,False,True,False,True,False,False,False,"(41.918217, -87.652644)",51.0,21190,68.0,744.0,34.0,41.918217,-87.652644
38,30032,E,Ashland (Loop-63rd-bound),Ashland,Ashland (Green & Pink Lines),40170,True,False,False,True,False,False,False,False,True,False,"(41.885269, -87.666969)",41.0,14917,29.0,579.0,46.0,41.885269,-87.666969
39,30033,W,Ashland (Harlem-54th/Cermak-bound),Ashland,Ashland (Green & Pink Lines),40170,True,False,False,True,False,False,False,False,True,False,"(41.885269, -87.666969)",41.0,14917,29.0,579.0,46.0,41.885269,-87.666969
40,30205,N,Ashland (Loop-bound),Ashland,Ashland (Orange Line),41060,True,False,False,False,False,False,False,False,False,True,"(41.839234, -87.665317)",26.0,14920,33.0,126.0,26.0,41.839234,-87.665317
41,30206,S,Ashland (Midway-bound),Ashland,Ashland (Orange Line),41060,True,False,False,False,False,False,False,False,False,True,"(41.839234, -87.665317)",26.0,14920,33.0,126.0,26.0,41.839234,-87.665317
42,30056,E,Ashland/63rd (Harlem-bound),Ashland/63rd,Ashland/63rd (Green Line),40290,True,False,False,True,False,False,False,False,False,False,"(41.77886, -87.663766)",19.0,22257,65.0,279.0,2.0,41.77886,-87.663766
43,30057,W,Ashland/63rd (Terminal arrival),Ashland/63rd,Ashland/63rd (Green Line),40290,True,False,False,True,False,False,False,False,False,False,"(41.77886, -87.663766)",19.0,22257,65.0,279.0,2.0,41.77886,-87.663766
44,30002,W,Austin (Forest Pk-bound),Austin,Austin (Blue Line),40010,False,False,True,False,False,False,False,False,False,False,"(41.870851, -87.776812)",,26618,,,,41.870851,-87.776812
45,30001,E,Austin (O'Hare-bound),Austin,Austin (Blue Line),40010,False,False,True,False,False,False,False,False,False,False,"(41.870851, -87.776812)",,26618,,,,41.870851,-87.776812
46,30243,E,Austin (63rd-bound),Austin,Austin (Green Line),41260,False,False,False,True,False,False,False,False,False,False,"(41.887293, -87.774135)",52.0,22216,26.0,672.0,7.0,41.887293,-87.774135
47,30244,W,Austin (Harlem-bound),Austin,Austin (Green Line),41260,False,False,False,True,False,False,False,False,False,False,"(41.887293, -87.774135)",52.0,22216,26.0,672.0,7.0,41.887293,-87.774135
48,30013,S,Belmont (O'Hare Branch) (Forest Pk-bound),Belmont,Belmont (Blue Line),40060,False,False,True,False,False,False,False,False,False,False,"(41.938132, -87.712359)",15.0,21538,22.0,216.0,12.0,41.938132,-87.712359
49,30012,N,Belmont (O'Hare Branch) (O'Hare-bound),Belmont,Belmont (Blue Line),40060,False,False,True,False,False,False,False,False,False,False,"(41.938132, -87.712359)",15.0,21538,22.0,216.0,12.0,41.938132,-87.712359
50,30256,S,Belmont (95th-bound),Belmont,"Belmont (Red, Brown & Purple Lines)",41320,True,True,False,False,False,False,False,False,False,False,"(41.939751, -87.65338)",38.0,4449,57.0,681.0,25.0,41.939751,-87.65338
51,30255,N,Belmont (Howard-bound),Belmont,"Belmont (Red, Brown & Purple Lines)",41320,True,True,False,False,False,False,False,False,False,False,"(41.939751, -87.65338)",38.0,4449,57.0,681.0,25.0,41.939751,-87.65338
52,30257,N,Belmont (Kimball-Linden-bound),Belmont,"Belmont (Red, Brown & Purple Lines)",41320,True,False,False,False,True,False,True,False,False,False,"(41.939751, -87.65338)",38.0,4449,57.0,681.0,25.0,41.939751,-87.65338
53,30258,S,Belmont (Loop-bound),Belmont,"Belmont (Red, Brown & Purple Lines)",41320,True,False,False,False,True,False,True,False,False,False,"(41.939751, -87.65338)",38.0,4449,57.0,681.0,25.0,41.939751,-87.65338
54,30067,S,Berwyn (95th-bound),Berwyn,Berwyn (Red Line),40340,False,True,False,False,False,False,False,False,False,False,"(41.977984, -87.658668)",40.0,22616,76.0,160.0,16.0,41.977984,-87.658668
55,30066,N,Berwyn (Howard-bound),Berwyn,Berwyn (Red Line),40340,False,True,False,False,False,False,False,False,False,False,"(41.977984, -87.658668)",40.0,22616,76.0,160.0,16.0,41.977984,-87.658668
56,30268,S,Bryn Mawr (95th-bound),Bryn Mawr,Bryn Mawr (Red Line),41380,False,True,False,False,False,False,False,False,False,False,"(41.983504, -87.65884)",40.0,22616,76.0,145.0,16.0,41.983504,-87.65884
57,30267,N,Bryn Mawr (Howard-bound),Bryn Mawr,Bryn Mawr (Red Line),41380,False,True,False,False,False,False,False,False,False,False,"(41.983504, -87.65884)",40.0,22616,76.0,145.0,16.0,41.983504,-87.65884
58,30087,W,California (54th/Cermak-bound),California,California (Pink Line),40440,True,False,False,False,False,False,False,False,True,False,"(41.854109, -87.694774)",11.0,14920,32.0,203.0,1.0,41.854109,-87.694774
59,30086,E,California (Loop-bound),California,California (Pink Line),40440,True,False,False,False,False,False,False,False,True,False,"(41.854109, -87.694774)",11.0,14920,32.0,203.0,1.0,41.854109,-87.694774
60,30265,E,California (63rd-bound),California,California (Green Line),41360,True,False,False,True,False,False,False,False,False,False,"(41.88422, -87.696234)",41.0,21184,28.0,50.0,46.0,41.88422,-87.696234
61,30266,W,California (Harlem-bound),California,California (Green Line),41360,True,False,False,True,False,False,False,False,False,False,"(41.88422, -87.696234)",41.0,21184,28.0,50.0,46.0,41.88422,-87.696234
62,30111,N,California (O'Hare-bound),California,California (Blue Line),40570,False,False,True,False,False,False,False,False,False,False,"(41.921939, -87.69689)",24.0,22535,23.0,294.0,41.0,41.921939,-87.69689
63,30112,S,California (Forest Pk-bound),California,California  (Blue Line),40570,False,False,True,False,False,False,False,False,False,False,"(41.921939, -87.69689)",24.0,22535,23.0,294.0,41.0,41.921939,-87.69689
64,30054,E,Central (63rd-bound),Central,Central (Green Line),40280,True,False,False,True,False,False,False,False,False,False,"(41.887389, -87.76565)",52.0,22216,26.0,672.0,7.0,41.887389,-87.76565
65,30055,W,Central (Harlem-bound),Central,Central (Green Line),40280,True,False,False,True,False,False,False,False,False,False,"(41.887389, -87.76565)",52.0,22216,26.0,672.0,7.0,41.887389,-87.76565
66,30242,S,Central (Howard-Loop-bound),Central,Central (Purple Line),41250,False,False,False,False,False,True,True,False,False,False,"(42.063987, -87.685617)",,26293,,,,42.063987,-87.685617
67,30241,N,Central (Linden-bound),Central,Central (Purple Line),41250,False,False,False,False,False,True,True,False,False,False,"(42.063987, -87.685617)",,26293,,,,42.063987,-87.685617
68,30152,W,Central Park (54th/Cermak-bound),Central Park,Central Park (Pink Line),40780,True,False,False,False,False,False,False,False,True,False,"(41.853839, -87.714842)",36.0,21569,30.0,157.0,14.0,41.853839,-87.714842
69,30151,E,Central Park (Loop-bound),Central Park,Central Park (Pink Line),40780,True,False,False,False,False,False,False,False,True,False,"(41.853839, -87.714842)",36.0,21569,30.0,157.0,14.0,41.853839,-87.714842
70,30194,S,Cermak-Chinatown (95th-bound),Cermak-Chinatown,Cermak-Chinatown (Red Line),41000,True,True,False,False,False,False,False,False,False,False,"(41.853206, -87.630968)",8.0,21194,35.0,3.0,26.0,41.853206,-87.630968
71,30193,N,Cermak-Chinatown (Howard-bound),Cermak-Chinatown,Cermak-Chinatown (Red Line),41000,True,True,False,False,False,False,False,False,False,False,"(41.853206, -87.630968)",8.0,21194,35.0,3.0,26.0,41.853206,-87.630968
72,30382,S,Cermak-McCormick Place (63rd-bound),Cermak-McCormick Place,Cermak-McCormick Place (Green Line),41690,True,False,False,True,False,False,False,False,False,False,"(41.853115, -87.626402)",12.0,21194,34.0,374.0,9.0,41.853115,-87.626402
73,30381,N,Cermak-McCormick Place (Harlem-bound),Cermak-McCormick Place,Cermak-McCormick Place (Green Line),41690,True,False,False,True,False,False,False,False,False,False,"(41.853115, -87.626402)",12.0,21194,34.0,374.0,9.0,41.853115,-87.626402
74,30271,N,Chicago (O'Hare-bound),Chicago,Chicago (Blue Line),41410,False,False,True,False,False,False,False,False,False,False,"(41.896075, -87.655214)",41.0,22620,25.0,522.0,46.0,41.896075,-87.655214
75,30138,S,Chicago (Loop-bound),Chicago,Chicago (Brown & Purple Lines),40710,True,False,False,False,True,False,True,False,False,False,"(41.89681, -87.635924)",41.0,14926,37.0,652.0,46.0,41.89681,-87.635924
76,30137,N,Chicago (Kimball-Linden-bound),Chicago,Chicago (Brown & Purple Lines),40710,True,False,False,False,True,False,True,False,False,False,"(41.89681, -87.635924)",41.0,14926,37.0,652.0,46.0,41.89681,-87.635924
77,30280,S,Chicago (95th-bound),Chicago,Chicago (Red Line),41450,True,True,False,False,False,False,False,False,False,False,"(41.896671, -87.628176)",22.0,21182,37.0,626.0,36.0,41.896671,-87.628176
78,30279,N,Chicago (Howard-bound),Chicago,Chicago (Red Line),41450,True,True,False,False,False,False,False,False,False,False,"(41.896671, -87.628176)",22.0,21182,37.0,626.0,36.0,41.896671,-87.628176
79,30272,S,Chicago (Forest Pk-bound),Chicago,Chicago (Blue Line),41410,False,False,True,False,False,False,False,False,False,False,"(41.896075, -87.655214)",41.0,22620,25.0,522.0,46.0,41.896075,-87.655214
80,30083,W,Cicero (54th/Cermak-bound),Cicero,Cicero (Pink Line),40420,True,False,False,False,False,False,False,False,True,False,"(41.85182, -87.745336)",,4458,,,,41.85182,-87.745336
81,30082,E,Cicero (Loop-bound),Cicero,Cicero (Pink Line),40420,True,False,False,False,False,False,False,False,True,False,"(41.85182, -87.745336)",,4458,,,,41.85182,-87.745336
82,30188,W,Cicero (Forest Pk-bound),Cicero,Cicero (Blue Line),40970,False,False,True,False,False,False,False,False,False,False,"(41.871574, -87.745154)",36.0,22216,26.0,61.0,7.0,41.871574,-87.745154
83,30187,E,Cicero (O'Hare-bound),Cicero,Cicero (Blue Line),40970,False,False,True,False,False,False,False,False,False,False,"(41.871574, -87.745154)",36.0,22216,26.0,61.0,7.0,41.871574,-87.745154
84,30094,E,Cicero (63rd-bound),Cicero,Cicero (Green Line),40480,True,False,False,True,False,False,False,False,False,False,"(41.886519, -87.744698)",11.0,22216,26.0,696.0,23.0,41.886519,-87.744698
85,30009,W,Cicero (Harlem-bound),Cicero,Cicero (Green Line),40480,True,False,False,True,False,False,False,False,False,False,"(41.886519, -87.744698)",11.0,22216,26.0,696.0,23.0,41.886519,-87.744698
86,30122,S,Clark/Division (95th-bound),Clark/Division,Clark/Division (Red Line),40630,True,True,False,False,False,False,False,False,False,False,"(41.90392, -87.631412)",22.0,14926,37.0,17.0,11.0,41.90392,-87.631412
87,30121,N,Clark/Division (Howard-bound),Clark/Division,Clark/Division (Red Line),40630,True,True,False,False,False,False,False,False,False,False,"(41.90392, -87.631412)",22.0,14926,37.0,17.0,11.0,41.90392,-87.631412
88,30074,E,Clark/Lake (Inner Loop),Clark/Lake,"Clark/Lake (Blue, Brown, Green, Orange, Purple & Pink Lines)",40380,True,False,False,True,False,False,True,False,True,True,"(41.885737, -87.630886)",22.0,14309,38.0,92.0,36.0,41.885737,-87.630886
89,30075,W,Clark/Lake (Outer Loop),Clark/Lake,"Clark/Lake (Blue, Brown, Green, Orange, Purple & Pink Lines)",40380,True,False,False,True,True,False,False,False,False,False,"(41.885737, -87.630886)",22.0,14309,38.0,92.0,36.0,41.885737,-87.630886
90,30374,S,Clark/Lake (Forest Pk-bound),Clark/Lake,"Clark/Lake (Blue, Brown, Green, Orange, Purple & Pink Lines)",40380,True,False,True,False,False,False,False,False,False,False,"(41.885737, -87.630886)",22.0,14309,38.0,92.0,36.0,41.885737,-87.630886
91,30375,N,Clark/Lake (O'Hare-bound),Clark/Lake,"Clark/Lake (Blue, Brown, Green, Orange, Purple & Pink Lines)",40380,True,False,True,False,False,False,False,False,False,False,"(41.885737, -87.630886)",22.0,14309,38.0,92.0,36.0,41.885737,-87.630886
92,30085,W,Clinton (Forest Pk-bound),Clinton,Clinton (Blue Line),40430,False,False,True,False,False,False,False,False,False,False,"(41.875539, -87.640984)",48.0,14917,29.0,97.0,26.0,41.875539,-87.640984
93,30084,E,Clinton (O'Hare-bound),Clinton,Clinton (Blue Line),40430,False,False,True,False,False,False,False,False,False,False,"(41.875539, -87.640984)",48.0,14917,29.0,97.0,26.0,41.875539,-87.640984
94,30222,W,Clinton (Harlem-54th/Cermak-bound),Clinton,Clinton (Green & Pink Lines),41160,True,False,False,True,False,False,False,False,True,False,"(41.885678, -87.641782)",22.0,4452,29.0,784.0,36.0,41.885678,-87.641782
95,30221,E,Clinton (Loop-63rd-bound),Clinton,Clinton (Green & Pink Lines),41160,True,False,False,True,False,False,False,False,True,False,"(41.885678, -87.641782)",22.0,4452,29.0,784.0,36.0,41.885678,-87.641782
96,30291,E,Conservatory (63rd-bound),Conservatory,Conservatory (Green Line),41670,True,False,False,True,False,False,False,False,False,False,"(41.884904, -87.716523)",11.0,21572,28.0,176.0,23.0,41.884904,-87.716523
97,30292,W,Conservatory (Harlem-bound),Conservatory,Conservatory (Green Line),41670,True,False,False,True,False,False,False,False,False,False,"(41.884904, -87.716523)",11.0,21572,28.0,176.0,23.0,41.884904,-87.716523
98,30139,E,Cottage Grove (Terminal arrival),Cottage Grove,Cottage Grove (Green Line),40720,True,False,False,True,False,False,False,False,False,False,"(41.780309, -87.605857)",53.0,22260,9.0,347.0,4.0,41.780309,-87.605857
99,30140,W,Cottage Grove (Harlem-bound),Cottage Grove,Cottage Grove (Green Line),40720,True,False,False,True,False,False,False,False,False,False,"(41.780309, -87.605857)",53.0,22260,9.0,347.0,4.0,41.780309,-87.605857
100,30045,S,Cumberland (Forest Pk-bound),Cumberland,Cumberland (Blue Line),40230,True,False,True,False,False,False,False,False,False,False,"(41.984246, -87.838028)",34.0,22243,75.0,64.0,29.0,41.984246,-87.838028
101,30044,N,Cumberland (O'Hare-bound),Cumberland,Cumberland (Blue Line),40230,True,False,True,False,False,False,False,False,False,False,"(41.984246, -87.838028)",34.0,22243,75.0,64.0,29.0,41.984246,-87.838028
102,30041,W,Damen (54th/Cermak-bound),Damen,Damen (Pink Line),40210,True,False,False,False,False,False,False,False,True,False,"(41.854517, -87.675975)",8.0,14920,33.0,366.0,26.0,41.854517,-87.675975
103,30040,E,Damen (Loop-bound),Damen,Damen (Pink Line),40210,True,False,False,False,False,False,False,False,True,False,"(41.854517, -87.675975)",8.0,14920,33.0,366.0,26.0,41.854517,-87.675975
104,30116,S,Damen/Milwaukee (Forest Pk-bound),Damen,Damen (Blue Line),40590,False,False,True,False,False,False,False,False,False,False,"(41.909744, -87.677437)",24.0,21560,25.0,481.0,41.0,41.909744,-87.677437
105,30115,N,Damen/Milwaukee (O'Hare-bound),Damen,Damen (Blue Line),40590,False,False,True,False,False,False,False,False,False,False,"(41.909744, -87.677437)",24.0,21560,25.0,481.0,41.0,41.909744,-87.677437
106,30018,N,Damen (Kimball-bound),Damen,Damen (Brown Line),40090,True,False,False,False,True,False,False,False,False,False,"(41.966286, -87.678639)",13.0,21849,6.0,225.0,18.0,41.966286,-87.678639
107,30019,S,Damen (Loop-bound),Damen,Damen (Brown Line),40090,True,False,False,False,True,False,False,False,False,False,"(41.966286, -87.678639)",13.0,21849,6.0,225.0,18.0,41.966286,-87.678639
108,30011,S,Davis (Howard-Loop-bound),Davis,Davis (Purple Line),40050,True,False,False,False,False,True,True,False,False,False,"(42.04771, -87.683543)",,26293,,,,42.04771,-87.683543
109,30010,N,Davis (Linden-bound),Davis,Davis (Purple Line),40050,True,False,False,False,False,True,True,False,False,False,"(42.04771, -87.683543)",,26293,,,,42.04771,-87.683543
110,30134,S,Dempster (Howard-Loop-bound),Dempster,Dempster (Purple Line),40690,False,False,False,False,False,True,True,False,False,False,"(42.041655, -87.681602)",,26293,,,,42.041655,-87.681602
111,30133,N,Dempster (Linden-bound),Dempster,Dempster (Purple Line),40690,False,False,False,False,False,True,True,False,False,False,"(42.041655, -87.681602)",,26293,,,,42.041655,-87.681602
112,30027,S,Dempster-Skokie (Howard-bound),Dempster-Skokie,Dempster-Skokie  (Yellow Line),40140,True,False,False,False,False,False,False,True,False,False,"(42.038951, -87.751919)",,9460,,,,42.038951,-87.751919
113,30026,N,Dempster-Skokie (Arrival),Dempster-Skokie,Dempster-Skokie  (Yellow Line),40140,True,False,False,False,False,False,False,True,False,False,"(42.038951, -87.751919)",,9460,,,,42.038951,-87.751919
114,30103,N,Diversey (Kimball-Linden-bound),Diversey,Diversey (Brown & Purple Lines),40530,True,False,False,False,True,False,True,False,False,False,"(41.932732, -87.653131)",38.0,21190,57.0,681.0,25.0,41.932732,-87.653131
115,30104,S,Diversey (Loop-bound),Diversey,Diversey (Brown & Purple Lines),40530,True,False,False,False,True,False,True,False,False,False,"(41.932732, -87.653131)",38.0,21190,57.0,681.0,25.0,41.932732,-87.653131
116,30063,S,Division (Forest Pk-bound),Division,Division (Blue Line),40320,False,False,True,False,False,False,False,False,False,False,"(41.903355, -87.666496)",24.0,22620,25.0,484.0,11.0,41.903355,-87.666496
117,30062,N,Division (O'Hare-bound),Division,Division (Blue Line),40320,False,False,True,False,False,False,False,False,False,False,"(41.903355, -87.666496)",24.0,22620,25.0,484.0,11.0,41.903355,-87.666496
118,30076,E,Forest Park (O'Hare-bound),Forest Park,Forest Park (Blue Line),40390,True,False,True,False,False,False,False,False,False,False,"(41.874257, -87.817318)",,15606,,,,41.874257,-87.817318
119,30077,W,Forest Park (Terminal Arrival),Forest Park,Forest Park (Blue Line),40390,True,False,True,False,False,False,False,False,False,False,"(41.874257, -87.817318)",,15606,,,,41.874257,-87.817318
120,30102,S,Foster (Howard-Loop-bound),Foster,Foster (Purple Line),40520,False,False,False,False,False,True,True,False,False,False,"(42.05416, -87.68356)",,26293,,,,42.05416,-87.68356
121,30101,N,Foster (Linden-bound),Foster,Foster (Purple Line),40520,False,False,False,False,False,True,True,False,False,False,"(42.05416, -87.68356)",,26293,,,,42.05416,-87.68356
122,30167,N,Francisco (Kimball-bound),Francisco,Francisco (Brown Line),40870,True,False,False,False,True,False,False,False,False,False,"(41.966046, -87.701644)",2.0,21849,14.0,258.0,20.0,41.966046,-87.701644
123,30168,S,Francisco (Loop-bound),Francisco,Francisco (Brown Line),40870,True,False,False,False,True,False,False,False,False,False,"(41.966046, -87.701644)",2.0,21849,14.0,258.0,20.0,41.966046,-87.701644
124,30234,S,Fullerton (95th-bound),Fullerton,"Fullerton (Red, Brown & Purple Lines)",41220,True,True,False,False,False,False,False,False,False,False,"(41.925051, -87.652866)",51.0,21190,68.0,744.0,34.0,41.925051,-87.652866
125,30233,N,Fullerton (Howard-bound),Fullerton,"Fullerton (Red, Brown & Purple Lines)",41220,True,True,False,False,False,False,False,False,False,False,"(41.925051, -87.652866)",51.0,21190,68.0,744.0,34.0,41.925051,-87.652866
126,30235,N,Fullerton (Kimball-Linden-bound),Fullerton,"Fullerton (Red, Brown & Purple Lines)",41220,True,False,False,False,True,False,True,False,False,False,"(41.925051, -87.652866)",51.0,21190,68.0,744.0,34.0,41.925051,-87.652866
127,30236,S,Fullerton (Loop-bound),Fullerton,"Fullerton (Red, Brown & Purple Lines)",41220,True,False,False,False,True,False,True,False,False,False,"(41.925051, -87.652866)",51.0,21190,68.0,744.0,34.0,41.925051,-87.652866
128,30100,S,Garfield (63rd-bound),Garfield,Garfield (Green Line),40510,True,False,False,True,False,False,False,False,False,False,"(41.795172, -87.618327)",12.0,21192,7.0,401.0,9.0,41.795172,-87.618327
129,30099,N,Garfield (Harlem-bound),Garfield,Garfield (Green Line),40510,True,False,False,True,False,False,False,False,False,False,"(41.795172, -87.618327)",12.0,21192,7.0,401.0,9.0,41.795172,-87.618327
130,30224,S,Garfield (95th-bound),Garfield,Garfield (Red Line),41170,True,True,False,False,False,False,False,False,False,False,"(41.79542, -87.631157)",12.0,14924,3.0,224.0,9.0,41.79542,-87.631157
131,30223,N,Garfield (Howard-bound),Garfield,Garfield (Red Line),41170,True,True,False,False,False,False,False,False,False,False,"(41.79542, -87.631157)",12.0,14924,3.0,224.0,9.0,41.79542,-87.631157
132,30096,S,Grand/Milwaukee (Forest Pk-bound),Grand,Grand (Blue Line),40490,False,False,True,False,False,False,False,False,False,False,"(41.891189, -87.647578)",41.0,4446,25.0,109.0,46.0,41.891189,-87.647578
133,30095,N,Grand/Milwaukee (O'Hare-bound),Grand,Grand (Blue Line),40490,False,False,True,False,False,False,False,False,False,False,"(41.891189, -87.647578)",41.0,4446,25.0,109.0,46.0,41.891189,-87.647578
134,30065,S,Grand/State (95th-bound),Grand,Grand (Red Line),40330,True,True,False,False,False,False,False,False,False,False,"(41.891665, -87.628021)",22.0,21182,37.0,626.0,36.0,41.891665,-87.628021
135,30064,N,Grand/State (Howard-bound),Grand,Grand (Red Line),40330,True,True,False,False,False,False,False,False,False,False,"(41.891665, -87.628021)",22.0,21182,37.0,626.0,36.0,41.891665,-87.628021
136,30148,S,Granville (95th-bound),Granville,Granville (Red Line),40760,True,True,False,False,False,False,False,False,False,False,"(41.993664, -87.659202)",40.0,4451,76.0,46.0,16.0,41.993664,-87.659202
137,30147,N,Granville (Howard-bound),Granville,Granville (Red Line),40760,True,True,False,False,False,False,False,False,False,False,"(41.993664, -87.659202)",40.0,4451,76.0,46.0,16.0,41.993664,-87.659202
138,30215,N,Halsted (Loop-bound),Halsted,Halsted (Orange Line),41130,True,False,False,False,False,False,False,False,False,True,"(41.84678, -87.648088)",26.0,14920,58.0,59.0,48.0,41.84678,-87.648088
139,30216,S,Halsted (Midway-bound),Halsted,Halsted (Orange Line),41130,True,False,False,False,False,False,False,False,False,True,"(41.84678, -87.648088)",26.0,14920,58.0,59.0,48.0,41.84678,-87.648088
140,30184,W,Halsted/63rd (Ashland-bound),Halsted,Halsted (Green Line),40940,True,False,False,True,False,False,False,False,False,False,"(41.778943, -87.644244)",53.0,21559,66.0,435.0,4.0,41.778943,-87.644244
141,30183,E,Halsted/63rd (Harlem-bound),Halsted,Halsted (Green Line),40940,True,False,False,True,False,False,False,False,False,False,"(41.778943, -87.644244)",53.0,21559,66.0,435.0,4.0,41.778943,-87.644244
142,30146,S,Harlem (O'Hare Branch) (Forest Pk-bound),Harlem,Harlem (Blue Line - O'Hare Branch),40750,True,False,True,False,False,False,False,False,False,False,"(41.98227, -87.8089)",34.0,4448,36.0,735.0,29.0,41.98227,-87.8089
143,30145,N,Harlem (O'Hare Branch) (O'Hare-bound),Harlem,Harlem (Blue Line - O'Hare Branch),40750,True,False,True,False,False,False,False,False,False,False,"(41.98227, -87.8089)",34.0,4448,36.0,735.0,29.0,41.98227,-87.8089
144,30189,E,Harlem (Forest Pk Branch) (O'Hare-bound),Harlem,Harlem (Blue Line - Forest Park Branch),40980,False,False,True,False,False,False,False,False,False,False,"(41.87349, -87.806961)",,15606,,,,41.87349,-87.806961
145,30190,W,Harlem (Forest Pk Branch) (Terminal arrival),Harlem,Harlem (Blue Line - Forest Park Branch),40980,False,False,True,False,False,False,False,False,False,False,"(41.87349, -87.806961)",,15606,,,,41.87349,-87.806961
146,30004,W,Harlem (Terminal arrival),Harlem/Lake,Harlem/Lake (Green Line),40020,True,False,False,True,False,False,False,False,False,False,"(41.886848, -87.803176)",,26611,,,,41.886848,-87.803176
147,30003,E,Harlem (63rd-bound),Harlem/Lake,Harlem/Lake (Green Line),40020,True,False,False,True,False,False,False,False,False,False,"(41.886848, -87.803176)",,26611,,,,41.886848,-87.803176
148,30166,W,H.W. Library (Inner Loop),Harold Washington Library-State/Van Buren,"Harold Washington Library-State/Van Buren (Brown, Orange, Purple & Pink Lines)",40850,True,False,False,False,False,False,True,False,True,True,"(41.876862, -87.628196)",48.0,14913,38.0,92.0,10.0,41.876862,-87.628196
149,30165,E,H.W. Library (Outer Loop),Harold Washington Library-State/Van Buren,"Harold Washington Library-State/Van Buren (Brown, Orange, Purple & Pink Lines)",40850,True,False,False,False,True,False,False,False,False,False,"(41.876862, -87.628196)",48.0,14913,38.0,92.0,10.0,41.876862,-87.628196
150,30286,S,Harrison (95th-bound),Harrison,Harrison (Red Line),41490,False,True,False,False,False,False,False,False,False,False,"(41.874039, -87.627479)",48.0,14913,38.0,368.0,10.0,41.874039,-87.627479
151,30285,N,Harrison (Howard-bound),Harrison,Harrison (Red Line),41490,False,True,False,False,False,False,False,False,False,False,"(41.874039, -87.627479)",48.0,14913,38.0,368.0,10.0,41.874039,-87.627479
152,30176,S,Howard (Terminal arrival),Howard,"Howard (Red, Purple & Yellow Lines)",40900,True,False,False,False,False,True,True,True,False,False,"(42.019063, -87.672892)",3.0,21853,10.0,489.0,5.0,42.019063,-87.672892
153,30173,N,Howard (Terminal arrival),Howard,"Howard (Red, Purple & Yellow Lines)",40900,True,True,False,False,False,False,False,False,False,False,"(42.019063, -87.672892)",3.0,21853,10.0,489.0,5.0,42.019063,-87.672892
154,30174,S,Howard (95th-Bound),Howard,"Howard (Red, Purple & Yellow Lines)",40900,True,True,False,False,False,False,False,False,False,False,"(42.019063, -87.672892)",3.0,21853,10.0,489.0,5.0,42.019063,-87.672892
155,30175,N,"Howard (Linden, Skokie-bound)",Howard,"Howard (Red, Purple & Yellow Lines)",40900,True,False,False,False,False,True,True,True,False,False,"(42.019063, -87.672892)",3.0,21853,10.0,489.0,5.0,42.019063,-87.672892
156,30158,W,Illinois Medical District (Forest Pk-bound),Illinois Medical District,Illinois Medical District (Blue Line),40810,True,False,True,False,False,False,False,False,False,False,"(41.875706, -87.673932)",48.0,21184,29.0,90.0,46.0,41.875706,-87.673932
157,30157,E,Illinois Medical District (O'Hare-bound),Illinois Medical District,Illinois Medical District (Blue Line),40810,True,False,True,False,False,False,False,False,False,False,"(41.875706, -87.673932)",48.0,21184,29.0,90.0,46.0,41.875706,-87.673932
158,30059,S,Indiana (63rd-bound),Indiana,Indiana (Green Line),40300,True,False,False,True,False,False,False,False,False,False,"(41.821732, -87.621371)",12.0,4301,4.0,163.0,9.0,41.821732,-87.621371
159,30058,N,Indiana (Harlem-bound),Indiana,Indiana (Green Line),40300,True,False,False,True,False,False,False,False,False,False,"(41.821732, -87.621371)",12.0,4301,4.0,163.0,9.0,41.821732,-87.621371
160,30108,S,Irving Park (O'Hare Branch) (Forest Pk-bound),Irving Park,Irving Park (Blue Line),40550,False,False,True,False,False,False,False,False,False,False,"(41.952925, -87.729229)",28.0,22618,16.0,295.0,50.0,41.952925,-87.729229
161,30107,N,Irving Park (O'Hare Branch) (O'Hare-bound),Irving Park,Irving Park (Blue Line),40550,False,False,True,False,False,False,False,False,False,False,"(41.952925, -87.729229)",28.0,22618,16.0,295.0,50.0,41.952925,-87.729229
162,30281,N,Irving Park (Kimball-bound),Irving Park,Irving Park (Brown Line),41460,True,False,False,False,True,False,False,False,False,False,"(41.954521, -87.674868)",13.0,21186,46.0,622.0,18.0,41.954521,-87.674868
163,30282,S,Irving Park (Loop-bound),Irving Park,Irving Park (Brown Line),41460,True,False,False,False,True,False,False,False,False,False,"(41.954521, -87.674868)",13.0,21186,46.0,622.0,18.0,41.954521,-87.674868
164,30015,S,Jackson/Dearborn (Forest Pk-bound),Jackson,Jackson (Blue Line),40070,True,False,True,False,False,False,False,False,False,False,"(41.878183, -87.629296)",22.0,14912,38.0,92.0,36.0,41.878183,-87.629296
165,30014,N,Jackson/Dearborn (O'Hare-bound),Jackson,Jackson (Blue Line),40070,True,False,True,False,False,False,False,False,False,False,"(41.878183, -87.629296)",22.0,14912,38.0,92.0,36.0,41.878183,-87.629296
166,30110,S,Jackson/State (95th-bound),Jackson,Jackson (Red Line),40560,True,True,False,False,False,False,False,False,False,False,"(41.878153, -87.627596)",48.0,14912,38.0,367.0,10.0,41.878153,-87.627596
167,30109,N,Jackson/State (Howard-bound),Jackson,Jackson (Red Line),40560,True,True,False,False,False,False,False,False,False,False,"(41.878153, -87.627596)",48.0,14912,38.0,367.0,10.0,41.878153,-87.627596
168,30228,S,Jarvis (95th-bound),Jarvis,Jarvis (Red Line),41190,False,True,False,False,False,False,False,False,False,False,"(42.015876, -87.669092)",3.0,21853,10.0,357.0,5.0,42.015876,-87.669092
169,30227,N,Jarvis (Howard-bound),Jarvis,Jarvis (Red Line),41190,False,True,False,False,False,False,False,False,False,False,"(42.015876, -87.669092)",3.0,21853,10.0,357.0,5.0,42.015876,-87.669092
170,30248,S,Jefferson Park (Forest Pk-bound),Jefferson Park,Jefferson Park (Blue Line),41280,True,False,True,False,False,False,False,False,False,False,"(41.970634, -87.760892)",20.0,21869,11.0,129.0,50.0,41.970634,-87.760892
171,30247,N,Jefferson Park (O'Hare-bound),Jefferson Park,Jefferson Park (Blue Line),41280,True,False,True,False,False,False,False,False,False,False,"(41.970634, -87.760892)",20.0,21869,11.0,129.0,50.0,41.970634,-87.760892
172,30219,N,Kedzie (Loop-bound),Kedzie,Kedzie (Orange Line),41150,True,False,False,False,False,False,False,False,False,True,"(41.804236, -87.704406)",49.0,22248,55.0,776.0,8.0,41.804236,-87.704406
173,30220,S,Kedzie (Midway-bound),Kedzie,Kedzie (Orange Line),41150,True,False,False,False,False,False,False,False,False,True,"(41.804236, -87.704406)",49.0,22248,55.0,776.0,8.0,41.804236,-87.704406
174,30202,W,Kedzie (54th/Cermak-bound),Kedzie,Kedzie (Pink Line),41040,True,False,False,False,False,False,False,False,True,False,"(41.853964, -87.705408)",36.0,21569,30.0,202.0,14.0,41.853964,-87.705408
175,30201,E,Kedzie (Loop-bound),Kedzie,Kedzie (Pink Line),41040,True,False,False,False,False,False,False,False,True,False,"(41.853964, -87.705408)",36.0,21569,30.0,202.0,14.0,41.853964,-87.705408
176,30225,N,Kedzie (Kimball-bound),Kedzie,Kedzie (Brown Line),41180,True,False,False,False,True,False,False,False,False,False,"(41.965996, -87.708821)",2.0,21849,14.0,118.0,20.0,41.965996,-87.708821
177,30226,S,Kedzie (Loop-bound),Kedzie,Kedzie (Brown Line),41180,True,False,False,False,True,False,False,False,False,False,"(41.965996, -87.708821)",2.0,21849,14.0,118.0,20.0,41.965996,-87.708821
178,30207,E,Kedzie (63rd-bound),Kedzie,Kedzie (Green Line),41070,True,False,False,True,False,False,False,False,False,False,"(41.884321, -87.706155)",41.0,21184,28.0,50.0,46.0,41.884321,-87.706155
179,30208,W,Kedzie (Harlem-bound),Kedzie,Kedzie (Green Line),41070,True,False,False,True,False,False,False,False,False,False,"(41.884321, -87.706155)",41.0,21184,28.0,50.0,46.0,41.884321,-87.706155
180,30049,W,Kedzie-Homan (Forest Pk-bound),Kedzie-Homan,Kedzie-Homan (Blue Line),40250,True,False,True,False,False,False,False,False,False,False,"(41.874341, -87.70604)",36.0,21572,28.0,765.0,14.0,41.874341,-87.70604
181,30048,E,Kedzie-Homan (O'Hare-bound),Kedzie-Homan,Kedzie-Homan (Blue Line),40250,True,False,True,False,False,False,False,False,False,False,"(41.874341, -87.70604)",36.0,21572,28.0,765.0,14.0,41.874341,-87.70604
182,30250,S,Kimball (Loop-bound),Kimball,Kimball (Brown Line),41290,True,False,False,False,True,False,False,False,False,False,"(41.967901, -87.713065)",2.0,21849,14.0,118.0,20.0,41.967901,-87.713065
183,30249,N,Kimball (Terminal arrival),Kimball,Kimball (Brown Line),41290,True,False,False,False,True,False,False,False,False,False,"(41.967901, -87.713065)",2.0,21849,14.0,118.0,20.0,41.967901,-87.713065
184,30217,E,King Drive (Cottage Grove-bound),King Drive,King Drive (Green Line),41140,True,False,False,True,False,False,False,False,False,False,"(41.78013, -87.615546)",53.0,22260,9.0,332.0,4.0,41.78013,-87.615546
185,30218,W,King Drive (Harlem-bound),King Drive,King Drive (Green Line),41140,True,False,False,True,False,False,False,False,False,False,"(41.78013, -87.615546)",53.0,22260,9.0,332.0,4.0,41.78013,-87.615546
186,30118,W,Kostner (54th/Cermak-bound),Kostner,Kostner (Pink Line),40600,True,False,False,False,False,False,False,False,True,False,"(41.853751, -87.733258)",36.0,21569,30.0,753.0,14.0,41.853751,-87.733258
187,30117,E,Kostner (Loop-bound),Kostner,Kostner (Pink Line),40600,True,False,False,False,False,False,False,False,True,False,"(41.853751, -87.733258)",36.0,21569,30.0,753.0,14.0,41.853751,-87.733258
188,30290,S,Lake (95th-bound),Lake,Lake (Red Line),41660,True,True,False,False,False,False,False,False,False,False,"(41.884809, -87.627813)",22.0,14309,38.0,580.0,36.0,41.884809,-87.627813
189,30289,N,Lake (Howard-bound),Lake,Lake (Red Line),41660,True,True,False,False,False,False,False,False,False,False,"(41.884809, -87.627813)",22.0,14309,38.0,580.0,36.0,41.884809,-87.627813
190,30135,E,Laramie (63rd-bound),Laramie,Laramie (Green Line),40700,True,False,False,True,False,False,False,False,False,False,"(41.887163, -87.754986)",11.0,22216,26.0,696.0,23.0,41.887163,-87.754986
191,30136,W,Laramie (Harlem-bound),Laramie,Laramie (Green Line),40700,True,False,False,True,False,False,False,False,False,False,"(41.887163, -87.754986)",11.0,22216,26.0,696.0,23.0,41.887163,-87.754986
192,30262,W,LaSalle (Forest Pk-bound),LaSalle,LaSalle (Blue Line),41340,False,False,True,False,False,False,False,False,False,False,"(41.875568, -87.631722)",48.0,14913,38.0,92.0,10.0,41.875568,-87.631722
193,30261,E,LaSalle (O'Hare-bound),LaSalle,LaSalle (Blue Line),41340,False,False,True,False,False,False,False,False,False,False,"(41.875568, -87.631722)",48.0,14913,38.0,92.0,10.0,41.875568,-87.631722
194,30031,W,LaSalle/Van Buren (Inner Loop),LaSalle/Van Buren,"LaSalle/Van Buren (Brown, Orange, Purple & Pink Lines)",40160,False,False,False,False,False,False,True,False,True,True,"(41.8768, -87.631739)",48.0,14913,38.0,92.0,10.0,41.8768,-87.631739
195,30030,E,LaSalle/Van Buren (Outer Loop),LaSalle/Van Buren,"LaSalle/Van Buren (Brown, Orange, Purple & Pink Lines)",40160,False,False,False,False,True,False,False,False,False,False,"(41.8768, -87.631739)",48.0,14913,38.0,92.0,10.0,41.8768,-87.631739
196,30150,S,Lawrence (95th-bound),Lawrence,Lawrence (Red Line),40770,False,True,False,False,False,False,False,False,False,False,"(41.969139, -87.658493)",40.0,22616,31.0,634.0,39.0,41.969139,-87.658493
197,30149,N,Lawrence (Howard-bound),Lawrence,Lawrence (Red Line),40770,False,True,False,False,False,False,False,False,False,False,"(41.969139, -87.658493)",40.0,22616,31.0,634.0,39.0,41.969139,-87.658493
198,30204,S,Linden (Howard-Loop-bound),Linden,Linden (Purple Line),41050,True,False,False,False,False,True,True,False,False,False,"(42.073153, -87.69073)",,9857,,,,42.073153,-87.69073
199,30203,N,Linden (Linden-bound),Linden,Linden (Purple Line),41050,True,False,False,False,False,True,True,False,False,False,"(42.073153, -87.69073)",,9857,,,,42.073153,-87.69073
200,30198,S,Logan Square (Forest Pk-bound),Logan Square,Logan Square (Blue Line),41020,True,False,True,False,False,False,False,False,False,False,"(41.929728, -87.708541)",15.0,22535,23.0,72.0,12.0,41.929728,-87.708541
201,30197,N,Logan Square (O'Hare-bound),Logan Square,Logan Square (Blue Line),41020,True,False,True,False,False,False,False,False,False,False,"(41.929728, -87.708541)",15.0,22535,23.0,72.0,12.0,41.929728,-87.708541
202,30252,S,Loyola (95th-bound),Loyola,Loyola (Red Line),41300,True,True,False,False,False,False,False,False,False,False,"(42.001073, -87.661061)",3.0,21853,10.0,48.0,5.0,42.001073,-87.661061
203,30251,N,Loyola (Howard-bound),Loyola,Loyola (Red Line),41300,True,True,False,False,False,False,False,False,False,False,"(42.001073, -87.661061)",3.0,21853,10.0,48.0,5.0,42.001073,-87.661061
204,30053,S,Main (Howard-Loop-bound),Main,Main (Purple Line),40270,False,False,False,False,False,True,True,False,False,False,"(42.033456, -87.679538)",,26609,,,,42.033456,-87.679538
205,30052,N,Main (Linden-bound),Main,Main (Purple Line),40270,False,False,False,False,False,True,True,False,False,False,"(42.033456, -87.679538)",,26609,,,,42.033456,-87.679538
206,30090,N,Merchandise Mart (Kimball-Linden-bound),Merchandise Mart,Merchandise Mart (Brown & Purple Lines),40460,True,False,False,False,True,False,True,False,False,False,"(41.888969, -87.633924)",22.0,4446,37.0,670.0,36.0,41.888969,-87.633924
207,30091,S,Merchandise Mart (Loop-bound),Merchandise Mart,Merchandise Mart (Brown & Purple Lines),40460,True,False,False,False,True,False,True,False,False,False,"(41.888969, -87.633924)",22.0,4446,37.0,670.0,36.0,41.888969,-87.633924
208,30182,S,Midway (Arrival),Midway,Midway (Orange Line),40930,True,False,False,False,False,False,False,False,False,True,"(41.78661, -87.737875)",35.0,21867,53.0,86.0,15.0,41.78661,-87.737875
209,30181,N,Midway (Loop-bound),Midway,Midway (Orange Line),40930,True,False,False,False,False,False,False,False,False,True,"(41.78661, -87.737875)",35.0,21867,53.0,86.0,15.0,41.78661,-87.737875
210,30154,S,Monroe (Forest Pk-bound),Monroe,Monroe (Blue Line),40790,False,False,True,False,False,False,False,False,False,False,"(41.880703, -87.629378)",22.0,14311,38.0,92.0,36.0,41.880703,-87.629378
211,30212,S,Monroe (95th-bound),Monroe,Monroe (Red Line),41090,False,True,False,False,False,False,False,False,False,False,"(41.880745, -87.627696)",22.0,14311,38.0,367.0,36.0,41.880745,-87.627696
212,30211,N,Monroe (Howard-bound),Monroe,Monroe (Red Line),41090,False,True,False,False,False,False,False,False,False,False,"(41.880745, -87.627696)",22.0,14311,38.0,367.0,36.0,41.880745,-87.627696
213,30153,N,Monroe (O'Hare-bound),Monroe,Monroe (Blue Line),40790,False,False,True,False,False,False,False,False,False,False,"(41.880703, -87.629378)",22.0,14311,38.0,92.0,36.0,41.880703,-87.629378
214,30260,S,Montrose (Forest Pk-bound),Montrose,Montrose (Blue Line),41330,False,False,True,False,False,False,False,False,False,False,"(41.961539, -87.743574)",20.0,21869,16.0,362.0,38.0,41.961539,-87.743574
215,30259,N,Montrose (O'Hare-bound),Montrose,Montrose (Blue Line),41330,False,False,True,False,False,False,False,False,False,False,"(41.961539, -87.743574)",20.0,21869,16.0,362.0,38.0,41.961539,-87.743574
216,30287,N,Montrose (Kimball-bound),Montrose,Montrose (Brown Line),41500,True,False,False,False,True,False,False,False,False,False,"(41.961756, -87.675047)",13.0,22616,6.0,225.0,18.0,41.961756,-87.675047
217,30288,S,Montrose (Loop-bound),Montrose,Montrose (Brown Line),41500,True,False,False,False,True,False,False,False,False,False,"(41.961756, -87.675047)",13.0,22616,6.0,225.0,18.0,41.961756,-87.675047
218,30296,W,Morgan (Harlem-54th/Cermak-bound),Morgan,Morgan (Green & Pink Lines),41510,True,False,False,True,False,False,False,False,True,False,"(41.885586, -87.652193)",41.0,14917,29.0,63.0,46.0,41.885586,-87.652193
219,30295,E,Morgan (Loop-63rd-bound),Morgan,Morgan (Green & Pink Lines),41510,True,False,False,True,False,False,False,False,True,False,"(41.885586, -87.652193)",41.0,14917,29.0,63.0,46.0,41.885586,-87.652193
220,30021,S,Morse (95th-bound),Morse,Morse (Red Line),40100,False,True,False,False,False,False,False,False,False,False,"(42.008362, -87.665909)",3.0,21853,10.0,358.0,5.0,42.008362,-87.665909
221,30020,N,Morse (Howard-bound),Morse,Morse (Red Line),40100,False,True,False,False,False,False,False,False,False,False,"(42.008362, -87.665909)",3.0,21853,10.0,358.0,5.0,42.008362,-87.665909
222,30126,S,North/Clybourn (95th-bound),North/Clybourn,North/Clybourn (Red Line),40650,False,True,False,False,False,False,False,False,False,False,"(41.910655, -87.649177)",51.0,22620,37.0,108.0,11.0,41.910655,-87.649177
223,30125,N,North/Clybourn (Howard-bound),North/Clybourn,North/Clybourn (Red Line),40650,False,True,False,False,False,False,False,False,False,False,"(41.910655, -87.649177)",51.0,22620,37.0,108.0,11.0,41.910655,-87.649177
224,30079,S,Noyes (Howard-Loop-bound),Noyes,Noyes (Purple Line),40400,False,False,False,False,False,True,True,False,False,False,"(42.058282, -87.683337)",,26293,,,,42.058282,-87.683337
225,30078,N,Noyes (Linden-bound),Noyes,Noyes (Purple Line),40400,False,False,False,False,False,True,True,False,False,False,"(42.058282, -87.683337)",,26293,,,,42.058282,-87.683337
226,30035,W,Oak Park (Forest Pk-bound),Oak Park,Oak Park (Blue Line),40180,False,False,True,False,False,False,False,False,False,False,"(41.872108, -87.791602)",,26618,,,,41.872108,-87.791602
227,30034,E,Oak Park (O'Hare-bound),Oak Park,Oak Park (Blue Line),40180,False,False,True,False,False,False,False,False,False,False,"(41.872108, -87.791602)",,26618,,,,41.872108,-87.791602
228,30263,E,Oak Park (63rd-bound),Oak Park,Oak Park (Green Line),41350,False,False,False,True,False,False,False,False,False,False,"(41.886988, -87.793783)",,26611,,,,41.886988,-87.793783
229,30264,W,Oak Park (Harlem-bound),Oak Park,Oak Park (Green Line),41350,False,False,False,True,False,False,False,False,False,False,"(41.886988, -87.793783)",,26611,,,,41.886988,-87.793783
230,30297,N,Oakton-Skokie (Dempster-Skokie-bound),Oakton-Skokie,Oakton-Skokie (Yellow Line),41680,True,False,False,False,False,False,False,True,False,False,"(42.02624348, -87.74722084)",,9460,,,,42.02624348,-87.74722084
231,30298,S,Oakton-Skokie (Howard-bound),Oakton-Skokie,Oakton-Skokie (Yellow Line),41680,True,False,False,False,False,False,False,True,False,False,"(42.02624348, -87.74722084)",,9460,,,,42.02624348,-87.74722084
232,30172,S,O'Hare (Forest Pk-bound),O'Hare,O'Hare (Blue Line),40890,True,False,True,False,False,False,False,False,False,False,"(41.97766526, -87.90422307)",34.0,16197,75.0,668.0,29.0,41.97766526,-87.90422307
233,30171,N,O'Hare (Terminal Arrival),O'Hare,O'Hare (Blue Line),40890,True,False,True,False,False,False,False,False,False,False,"(41.97766526, -87.90422307)",34.0,16197,75.0,668.0,29.0,41.97766526,-87.90422307
234,30253,N,Paulina (Kimball-bound),Paulina,Paulina (Brown Line),41310,True,False,False,False,True,False,False,False,False,False,"(41.943623, -87.670907)",16.0,4449,57.0,239.0,18.0,41.943623,-87.670907
235,30254,S,Paulina (Loop-bound),Paulina,Paulina (Brown Line),41310,True,False,False,False,True,False,False,False,False,False,"(41.943623, -87.670907)",16.0,4449,57.0,239.0,18.0,41.943623,-87.670907
236,30200,W,Polk (54th/Cermak-bound),Polk,Polk (Pink Line),41030,True,False,False,False,False,False,False,False,True,False,"(41.871551, -87.66953)",48.0,21184,29.0,5.0,46.0,41.871551,-87.66953
237,30199,E,Polk (Loop-bound),Polk,Polk (Pink Line),41030,True,False,False,False,False,False,False,False,True,False,"(41.871551, -87.66953)",48.0,21184,29.0,5.0,46.0,41.871551,-87.66953
238,30185,N,Pulaski (Loop-bound),Pulaski,Pulaski (Orange Line),40960,True,False,False,False,False,False,False,False,False,True,"(41.799756, -87.724493)",35.0,22248,60.0,793.0,6.0,41.799756,-87.724493
239,30186,S,Pulaski (Midway-bound),Pulaski,Pulaski (Orange Line),40960,True,False,False,False,False,False,False,False,False,True,"(41.799756, -87.724493)",35.0,22248,60.0,793.0,6.0,41.799756,-87.724493
240,30029,W,Pulaski (54th/Cermak-bound),Pulaski,Pulaski (Pink Line),40150,True,False,False,False,False,False,False,False,True,False,"(41.853732, -87.724311)",36.0,21569,30.0,752.0,14.0,41.853732,-87.724311
241,30028,E,Pulaski (Loop-bound),Pulaski,Pulaski (Pink Line),40150,True,False,False,False,False,False,False,False,True,False,"(41.853732, -87.724311)",36.0,21569,30.0,752.0,14.0,41.853732,-87.724311
242,30180,W,Pulaski (Forest Pk-bound),Pulaski,Pulaski (Blue Line),40920,False,False,True,False,False,False,False,False,False,False,"(41.873797, -87.725663)",36.0,21572,27.0,675.0,14.0,41.873797,-87.725663
243,30179,E,Pulaski (O'Hare-bound),Pulaski,Pulaski (Blue Line),40920,False,False,True,False,False,False,False,False,False,False,"(41.873797, -87.725663)",36.0,21572,27.0,675.0,14.0,41.873797,-87.725663
244,30005,E,Pulaski (63rd-bound),Pulaski,Pulaski (Green Line),40030,True,False,False,True,False,False,False,False,False,False,"(41.885412, -87.725404)",11.0,21572,27.0,658.0,23.0,41.885412,-87.725404
245,30006,W,Pulaski (Harlem-bound),Pulaski,Pulaski (Green Line),40030,True,False,False,True,False,False,False,False,False,False,"(41.885412, -87.725404)",11.0,21572,27.0,658.0,23.0,41.885412,-87.725404
246,30007,N,Quincy/Wells (Inner Loop),Quincy/Wells,"Quincy/Wells (Brown, Orange, Purple & Pink Lines)",40040,False,False,False,False,False,False,True,False,True,True,"(41.878723, -87.63374)",22.0,14912,38.0,92.0,36.0,41.878723,-87.63374
247,30008,S,Quincy/Wells (Outer Loop),Quincy/Wells,"Quincy/Wells (Brown, Orange, Purple & Pink Lines)",40040,False,False,False,False,True,False,False,False,False,False,"(41.878723, -87.63374)",22.0,14912,38.0,92.0,36.0,41.878723,-87.63374
248,30093,W,Racine (Forest Pk-bound),Racine,Racine (Blue Line),40470,False,False,True,False,False,False,False,False,False,False,"(41.87592, -87.659458)",48.0,14917,29.0,88.0,23.0,41.87592,-87.659458
249,30092,E,Racine (O'Hare-bound),Racine,Racine (Blue Line),40470,False,False,True,False,False,False,False,False,False,False,"(41.87592, -87.659458)",48.0,14917,29.0,88.0,23.0,41.87592,-87.659458
250,30119,E,Ridgeland (63rd-bound),Ridgeland,Ridgeland (Green Line),40610,False,False,False,True,False,False,False,False,False,False,"(41.887159, -87.783661)",,26615,,,,41.887159,-87.783661
251,30120,W,Ridgeland (Harlem-bound),Ridgeland,Ridgeland (Green Line),40610,False,False,False,True,False,False,False,False,False,False,"(41.887159, -87.783661)",,26615,,,,41.887159,-87.783661
252,30195,N,Rockwell (Kimball-bound),Rockwell,Rockwell (Brown Line),41010,True,False,False,False,True,False,False,False,False,False,"(41.966115, -87.6941)",13.0,21849,6.0,666.0,18.0,41.966115,-87.6941
253,30196,S,Rockwell (Loop-bound),Rockwell,Rockwell (Brown Line),41010,True,False,False,False,True,False,False,False,False,False,"(41.966115, -87.6941)",13.0,21849,6.0,666.0,18.0,41.966115,-87.6941
254,30080,N,Roosevelt (Loop-Harlem-bound),Roosevelt,"Roosevelt (Red, Orange & Green Lines)",41400,True,False,False,True,False,False,False,False,False,True,"(41.867405, -87.62659)",48.0,14913,34.0,374.0,9.0,41.867405,-87.62659
255,30269,N,Roosevelt (Howard-bound),Roosevelt,"Roosevelt (Red, Orange & Green Lines)",41400,True,True,False,False,False,False,False,False,False,False,"(41.867368, -87.627402)",48.0,14913,34.0,374.0,9.0,41.867368,-87.627402
256,30081,S,Roosevelt (Midway-63rd-bound),Roosevelt,"Roosevelt (Red, Orange & Green Lines)",41400,True,False,False,True,False,False,False,False,False,True,"(41.867405, -87.62659)",48.0,14913,34.0,374.0,9.0,41.867405,-87.62659
257,30270,S,Roosevelt (95th-bound),Roosevelt,"Roosevelt (Red, Orange & Green Lines)",41400,True,True,False,False,False,False,False,False,False,False,"(41.867368, -87.627402)",48.0,14913,34.0,374.0,9.0,41.867368,-87.627402
258,30160,S,Rosemont (Forest Pk-bound),Rosemont,Rosemont (Blue Line),40820,True,False,True,False,False,False,False,False,False,False,"(41.983507, -87.859388)",,16197,,,,41.983507,-87.859388
259,30159,N,Rosemont (O'Hare-bound),Rosemont,Rosemont (Blue Line),40820,True,False,True,False,False,False,False,False,False,False,"(41.983507, -87.859388)",,16197,,,,41.983507,-87.859388
260,30155,N,Sedgwick (Kimball-Linden-bound),Sedgwick,Sedgwick (Brown & Purple Lines),40800,True,False,False,False,True,False,True,False,False,False,"(41.910409, -87.639302)",51.0,14926,37.0,309.0,11.0,41.910409,-87.639302
261,30156,S,Sedgwick (Loop-bound),Sedgwick,Sedgwick (Brown & Purple Lines),40800,True,False,False,False,True,False,True,False,False,False,"(41.910409, -87.639302)",51.0,14926,37.0,309.0,11.0,41.910409,-87.639302
262,30017,S,Sheridan (95th-bound),Sheridan,Sheridan (Red Line),40080,False,True,False,False,False,False,False,False,False,False,"(41.953775, -87.654929)",38.0,21186,57.0,83.0,39.0,41.953775,-87.654929
263,30016,N,Sheridan (Howard-bound),Sheridan,Sheridan (Red Line),40080,False,True,False,False,False,False,False,False,False,False,"(41.953775, -87.654929)",38.0,21186,57.0,83.0,39.0,41.953775,-87.654929
264,30293,N,Sheridan (Howard-Linden-bound),Sheridan,Sheridan (Red Line),40080,False,False,False,False,False,False,False,False,False,False,"(41.953775, -87.654929)",38.0,21186,57.0,83.0,39.0,41.953775,-87.654929
265,30294,S,Sheridan (Loop-bound),Sheridan,Sheridan (Red Line),40080,False,False,False,False,False,False,False,False,False,False,"(41.953775, -87.654929)",38.0,21186,57.0,83.0,39.0,41.953775,-87.654929
266,30164,S,South Blvd (Howard-Loop-bound),South Boulevard,South Boulevard (Purple Line),40840,False,False,False,False,False,True,True,False,False,False,"(42.027612, -87.678329)",,26609,,,,42.027612,-87.678329
267,30163,N,South Blvd (Linden-bound),South Boulevard,South Boulevard (Purple Line),40840,False,False,False,False,False,True,True,False,False,False,"(42.027612, -87.678329)",,26609,,,,42.027612,-87.678329
268,30070,N,Southport (Kimball-bound),Southport,Southport (Brown Line),40360,True,False,False,False,True,False,False,False,False,False,"(41.943744, -87.663619)",38.0,4449,57.0,729.0,25.0,41.943744,-87.663619
269,30071,S,Southport (Loop-bound),Southport,Southport (Brown Line),40360,True,False,False,False,True,False,False,False,False,False,"(41.943744, -87.663619)",38.0,4449,57.0,729.0,25.0,41.943744,-87.663619
270,30037,S,Sox-35th (95th-bound),Sox-35th,Sox-35th (Red Line),40190,True,True,False,False,False,False,False,False,False,False,"(41.831191, -87.630636)",26.0,21194,35.0,376.0,48.0,41.831191,-87.630636
271,30036,N,Sox-35th (Howard-bound),Sox-35th,Sox-35th (Red Line),40190,True,True,False,False,False,False,False,False,False,False,"(41.831191, -87.630636)",26.0,21194,35.0,376.0,48.0,41.831191,-87.630636
272,30050,E,State/Lake (Inner Loop),State/Lake,"State/Lake (Brown, Green, Orange, Pink & Purple Lines)",40260,False,False,False,True,False,False,True,False,True,True,"(41.88574, -87.627835)",22.0,14309,38.0,580.0,36.0,41.88574,-87.627835
273,30051,W,State/Lake (Outer Loop),State/Lake,"State/Lake (Brown, Green, Orange, Pink & Purple Lines)",40260,False,False,False,True,True,False,False,False,False,False,"(41.88574, -87.627835)",22.0,14309,38.0,580.0,36.0,41.88574,-87.627835
274,30170,S,Thorndale (95th-bound),Thorndale,Thorndale (Red Line),40880,False,True,False,False,False,False,False,False,False,False,"(41.990259, -87.659076)",40.0,4451,76.0,213.0,16.0,41.990259,-87.659076
275,30169,N,Thorndale (Howard-bound),Thorndale,Thorndale (Red Line),40880,False,True,False,False,False,False,False,False,False,False,"(41.990259, -87.659076)",40.0,4451,76.0,213.0,16.0,41.990259,-87.659076
276,30069,W,UIC-Halsted (Forest Pk-bound),UIC-Halsted,UIC-Halsted (Blue Line),40350,True,False,True,False,False,False,False,False,False,False,"(41.875474, -87.649707)",48.0,14917,29.0,97.0,26.0,41.875474,-87.649707
277,30068,E,UIC-Halsted (O'Hare-bound),UIC-Halsted,UIC-Halsted (Blue Line),40350,True,False,True,False,False,False,False,False,False,False,"(41.875474, -87.649707)",48.0,14917,29.0,97.0,26.0,41.875474,-87.649707
278,30073,S,Washington (Forest Pk-bound),Washington,Washington (Blue Line),40370,False,False,True,False,False,False,False,False,False,False,"(41.883164, -87.62944)",22.0,14310,38.0,92.0,36.0,41.883164,-87.62944
279,30072,N,Washington (O'Hare-bound),Washington,Washington (Blue Line),40370,False,False,True,False,False,False,False,False,False,False,"(41.883164, -87.62944)",22.0,14310,38.0,92.0,36.0,41.883164,-87.62944
280,30383,N,Washington/Wabash (Outer Loop),Washington/Wabash,"Washington/Wabash (Brown, Green, Orange, Purple & Pink Lines)",41700,True,False,False,True,True,False,False,False,False,False,"(41.88322, -87.626189)",22.0,14310,38.0,580.0,36.0,41.88322,-87.626189
281,30384,S,Washington/Wabash (Inner Loop),Washington/Wabash,"Washington/Wabash (Brown, Green, Orange, Purple & Pink Lines)",41700,True,False,False,True,False,False,True,False,True,True,"(41.88322, -87.626189)",22.0,14310,38.0,580.0,36.0,41.88322,-87.626189
282,30141,N,Washington/Wells (Inner Loop),Washington/Wells,"Washington/Wells (Brown, Orange, Purple & Pink Lines)",40730,True,False,False,False,False,False,True,False,True,True,"(41.882695, -87.63378)",22.0,14310,38.0,92.0,36.0,41.882695,-87.63378
283,30142,S,Washington/Wells (Outer Loop),Washington/Wells,"Washington/Wells (Brown, Orange, Purple & Pink Lines)",40730,True,False,False,False,True,False,False,False,False,False,"(41.882695, -87.63378)",22.0,14310,38.0,92.0,36.0,41.882695,-87.63378
284,30231,N,Wellington (Kimball-Linden-bound),Wellington,Wellington (Brown & Purple Lines),41210,True,False,False,False,True,False,True,False,False,False,"(41.936033, -87.653266)",38.0,4449,57.0,681.0,25.0,41.936033,-87.653266
285,30232,S,Wellington (Loop-bound),Wellington,Wellington (Brown & Purple Lines),41210,True,False,False,False,True,False,True,False,False,False,"(41.936033, -87.653266)",38.0,4449,57.0,681.0,25.0,41.936033,-87.653266
286,30060,N,Western (Loop-bound),Western,Western (Orange Line),40310,True,False,False,False,False,False,False,False,False,True,"(41.804546, -87.684019)",19.0,14924,61.0,775.0,3.0,41.804546,-87.684019
287,30061,S,Western (Midway-bound),Western,Western (Orange Line),40310,True,False,False,False,False,False,False,False,False,True,"(41.804546, -87.684019)",19.0,14924,61.0,775.0,3.0,41.804546,-87.684019
288,30144,W,Western (54th/Cermak-bound),Western,Western (Pink Line),40740,True,False,False,False,False,False,False,False,True,False,"(41.854225, -87.685129)",8.0,14920,33.0,4.0,26.0,41.854225,-87.685129
289,30143,E,Western (Loop-bound),Western,Western (Pink Line),40740,True,False,False,False,False,False,False,False,True,False,"(41.854225, -87.685129)",8.0,14920,33.0,4.0,26.0,41.854225,-87.685129
290,30283,N,Western (Kimball-bound),Western,Western (Brown Line),41480,True,False,False,False,True,False,False,False,False,False,"(41.966163, -87.688502)",13.0,21849,6.0,665.0,18.0,41.966163,-87.688502
291,30284,S,Western (Loop-bound),Western,Western (Brown Line),41480,True,False,False,False,True,False,False,False,False,False,"(41.966163, -87.688502)",13.0,21849,6.0,665.0,18.0,41.966163,-87.688502
292,30130,S,Western (O'Hare Branch) (Forest Pk-bound),Western,Western (Blue Line - O'Hare Branch),40670,True,False,True,False,False,False,False,False,False,False,"(41.916157, -87.687364)",24.0,22535,23.0,373.0,40.0,41.916157,-87.687364
293,30042,E,Western (Forest Pk Branch) (O'Hare-bound),Western,Western (Blue Line - Forest Park Branch),40220,False,False,True,False,False,False,False,False,False,False,"(41.875478, -87.688436)",48.0,21184,29.0,756.0,23.0,41.875478,-87.688436
294,30043,W,Western (Forest Pk Branch) (Forest Pk-bound),Western,Western (Blue Line - Forest Park Branch),40220,False,False,True,False,False,False,False,False,False,False,"(41.875478, -87.688436)",48.0,21184,29.0,756.0,23.0,41.875478,-87.688436
295,30129,N,Western (O'Hare Branch) (O'Hare-bound),Western,Western (Blue Line - O'Hare Branch),40670,True,False,True,False,False,False,False,False,False,False,"(41.916157, -87.687364)",24.0,22535,23.0,373.0,40.0,41.916157,-87.687364
296,30385,S,Wilson (Loop-bound),Wilson,Wilson (Red & Purple Lines),40540,True,False,False,False,False,False,True,False,False,False,"(41.964273, -87.657588)",37.0,22616,31.0,241.0,39.0,41.964273,-87.657588
297,30106,S,Wilson (95th-bound),Wilson,Wilson (Red & Purple Lines),40540,True,True,False,False,False,False,False,False,False,False,"(41.964273, -87.657588)",37.0,22616,31.0,241.0,39.0,41.964273,-87.657588
298,30105,N,Wilson (Howard-bound),Wilson,Wilson (Red & Purple Lines),40540,True,True,False,False,False,False,False,False,False,False,"(41.964273, -87.657588)",37.0,22616,31.0,241.0,39.0,41.964273,-87.657588
299,30386,N,Wilson (Linden-bound),Wilson,Wilson (Red & Purple Lines),40540,True,False,False,False,False,False,True,False,False,False,"(41.964273, -87.657588)",37.0,22616,31.0,241.0,39.0,41.964273,-87.657588
